{"type":"FeatureCollection","features":[{"type":"Feature","properties":{"name":"Jakarta","luas":661.5,"populasi":11135191,"tahun":2024},"geometry":{"coordinates":[106.82693707997095,-6.174996977793214],"type":"Point","id":0},"id":0},{"type":"Feature","properties":{"name":"Tangerang","luas":164.5,"populasi":1927815,"tahun":2024},"geometry":{"coordinates":[106.63812980993623,-6.177003811359128],"type":"Point"},"id":1},{"type":"Feature","properties":{"name":"Tangerang Selatan","luas":147.19,"populasi":1429529,"tahun":2024},"geometry":{"coordinates":[106.70870395958309,-6.323824339807516],"type":"Point"},"id":2},{"type":"Feature","properties":{"name":"Bekasi","luas":204.6,"populasi":2526133,"tahun":2024},"geometry":{"coordinates":[106.99363021831925,-6.235035480184976],"type":"Point"},"id":3},{"type":"Feature","properties":{"name":"Depok","luas":200.29,"populasi":216364,"tahun":2024},"geometry":{"coordinates":[106.81555015164827,-6.405988152809556],"type":"Point"},"id":4},{"type":"Feature","properties":{"name":"Bogor","luas":119,"populasi":1137859,"tahun":2024},"geometry":{"coordinates":[106.80602712418482,-6.608959229530498],"type":"Point"},"id":5}]}